[
  {
    "id": "1",
    "name": "Chloela Home",
    "description": "Beautiful home d√©cor and furnishings",
    "coordinates": [
      -77.8988147006672,
      34.0467621537649
    ],
    "address": "1206 N Lake Park Blvd",
    "hours": "",
    "website": "https://www.chloelahome.com/",
    "phone": "(910) 636-3020"
  },
  {
    "id": "2",
    "name": "Salty Chic Boutique",
    "description": "Trendy coastal fashion, accessories, and gifts",
    "coordinates": [
      -77.89522991812875,
      34.0436755330134
    ],
    "address": "1018 N Lake Park Blvd Ste 105",
    "hours": "",
    "website": "https://shopsaltychic.com/",
    "phone": "(910) 458-5148"
  },
  {
    "id": "3",
    "name": "Island Beverage",
    "description": "Beer, wine, and local beverages",
    "coordinates": [
      -77.89887195190171,
      34.04695277392527
    ],
    "address": "1206 N Lake Blvd Unit C, Carolina Beach, NC 28428",
    "hours": "",
    "website": "https://islandbevcb.com/",
    "phone": "(910) 707-1423"
  },
  {
    "id": "4",
    "name": "Sumthin' Beachie",
    "description": "Beachy gifts and souvenirs",
    "coordinates": [
      -77.89585346282756,
      34.04057004612639
    ],
    "address": "809 N Lake Park Blvd",
    "hours": "",
    "website": "https://www.facebook.com/SumthinBeachie/",
    "phone": "(910) 707-0210"
  },
  {
    "id": "5",
    "name": "Seaside Shenanigans",
    "description": "Fun gifts and novelty items",
    "coordinates": [
      -77.89395713530105,
      34.03513426766774
    ],
    "address": "201 N Lake Park Blvd",
    "hours": "",
    "website": "https://seasideshenanigans.com/",
    "phone": "(910) 707-0942"
  },
  {
    "id": "6",
    "name": "The Fudgeboat",
    "description": "Handmade fudge and ice cream on the boardwalk",
    "coordinates": [
      -77.89246318948365,
      34.03422066812611
    ],
    "address": "107 Carolina Beach Ave N, Carolina Beach, NC 28428",
    "hours": "",
    "website": "https://fudgeboat.com/",
    "phone": "1-910-458-5823"
  },
  {
    "id": "7",
    "name": "Oceanside Art & Gifts",
    "description": "Local art and unique gift items",
    "coordinates": [
      -77.89246015632797,
      34.034146105958555
    ],
    "address": "105 Carolina Beach Ave N",
    "hours": "",
    "website": "https://www.facebook.com/p/Oceanside-Art-and-Gifts-61572235262113/",
    "phone": "(847) 668-6191"
  },
  {
    "id": "8",
    "name": "Coharie Coastal Boutique",
    "description": "Upscale coastal fashion and accessories",
    "coordinates": [
      -77.8936388530481,
      34.034506080423384
    ],
    "address": "120 N Lake Park Blvd Suite 100",
    "hours": "",
    "website": "https://cohariecoastalboutique.com/",
    "phone": "(910) 636-3030"
  },
  {
    "id": "9",
    "name": "Sea Creature Supplies & Rare Goods",
    "description": "Eco-friendly beach essentials and wellness products",
    "coordinates": [
      -77.89371760692354,
      34.032284323968824
    ],
    "address": "103 Charlotte Ave # 100",
    "hours": "",
    "website": "https://seacreaturecb.com/",
    "phone": ""
  },
  {
    "id": "10",
    "name": "Unique Boutique",
    "description": "Ladies wholesale clothing, all unique and one of a kind.",
    "coordinates": [
      -77.89478975983488,
      34.03152987064854
    ],
    "address": "207 Lake Park Blvd S",
    "hours": "",
    "website": "https://www.facebook.com/p/Unique-Boutique-of-Carolina-Beach-100056589707651/",
    "phone": "+19104584360"
  },
  {
    "id": "11",
    "name": "CB Surf Shop",
    "description": "Surf and beach gear, apparel, and accessories",
    "coordinates": [
      -77.8948054714856,
      34.03127781985047
    ],
    "address": "209 Lake Park Blvd S",
    "hours": "",
    "website": "https://www.cbsurfshop.com/",
    "phone": "(910) 458-7005"
  },
  {
    "id": "12",
    "name": "Island Tackle and Hardware",
    "description": "Apparel and gear for beach and outdoor adventures",
    "address": "801 N Lake Park Blvd",
    "hours": "",
    "coordinates": [
      -77.89582124774886,
      34.04014815131832
    ],
    "website": "https://islandtruevalue.com/",
    "phone": "(910) 458-3049"
  }
]